[{"code":"HT","name":"'s-Hertogenbosch","lat":51.69048,"lng":5.29362,"type":"KNOOPPUNT_INTERCITY_STATION"},{"code":"HTO","name":"'s-Hertogenbosch Oost","lat":51.700553894043,"lng":5.3183331489563,"type":"STOPTREIN_STATION"},{"code":"HDE","name":"'t Harde","lat":52.4091682,"lng":5.893611,"type":"STOPTREIN_STATION"},{"code":"ATN","name":"Aalten","lat":51.9213265245505,"lng":6.57862722873687,"type":"STOPTREIN_STATION"},{"code":"AC","name":"Abcoude","lat":52.2785,"lng":4.977,"type":"STOPTREIN_STATION"},{"code":"AKM","name":"Akkrum","lat":53.0463905334473,"lng":5.84361124038696,"type":"STOPTREIN_STATION"},{"code":"AMR","name":"Alkmaar","lat":52.6377792358398,"lng":4.73972225189209,"type":"KNOOPPUNT_INTERCITY_STATION"},{"code":"AMRN","name":"Alkmaar Noord","lat":52.6438903808594,"lng":4.76416683197022,"type":"STOPTREIN_STATION"},{"code":"AML","name":"Almelo","lat":52.3580551147461,"lng":6.65388870239258,"type":"KNOOPPUNT_INTERCITY_STATION"},{"code":"AMRI","name":"Almelo de Riet","lat":52.3419456481934,"lng":6.66666650772095,"type":"STOPTREIN_STATION"},{"code":"ALMB","name":"Almere Buiten","lat":52.3941650390625,"lng":5.2780556678772,"type":"STOPTREIN_STATION"},{"code":"ALM","name":"Almere Centrum","lat":52.37503,"lng":5.21764,"type":"KNOOPPUNT_INTERCITY_STATION"},{"code":"ALMM","name":"Almere Muziekwijk","lat":52.3675003051758,"lng":5.19027757644653,"type":"STOPTREIN_STATION"},{"code":"ALMO","name":"Almere Oostvaarders","lat":52.4033317565918,"lng":5.30055570602417,"type":"STOPTREIN_STATION"},{"code":"ALMP","name":"Almere Parkwijk","lat":52.3766670227051,"lng":5.24472236633301,"type":"STOPTREIN_STATION"},{"code":"AMPO","name":"Almere Poort","lat":52.342778,"lng":5.151944,"type":"STOPTREIN_STATION"},{"code":"APN","name":"Alphen a/d Rijn","lat":52.1244430541992,"lng":4.65777778625488,"type":"KNOOPPUNT_INTERCITY_STATION"},{"code":"AMF","name":"Amersfoort Centraal","lat":52.1538887023926,"lng":5.37055540084839,"type":"KNOOPPUNT_INTERCITY_STATION"},{"code":"AMFS","name":"Amersfoort Schothorst","lat":52.1748221374512,"lng":5.40388870239258,"type":"STOPTREIN_STATION"},{"code":"AVAT","name":"Amersfoort Vathorst","lat":52.1927795410156,"lng":5.43388891220093,"type":"STOPTREIN_STATION"},{"code":"ASA","name":"Amsterdam Amstel","lat":52.3466682434082,"lng":4.91777801513672,"type":"INTERCITY_STATION"},{"code":"ASB","name":"Amsterdam Bijlmer ArenA","lat":52.3122215270996,"lng":4.94694423675537,"type":"KNOOPPUNT_STOPTREIN_STATION"},{"code":"ASD","name":"Amsterdam Centraal","lat":52.3788871765137,"lng":4.90027761459351,"type":"MEGA_STATION"},{"code":"ASHD","name":"Amsterdam Holendrecht","lat":52.29844,"lng":4.95972,"type":"STOPTREIN_STATION"},{"code":"ASDL","name":"Amsterdam Lelylaan","lat":52.3577766418457,"lng":4.83388900756836,"type":"STOPTREIN_STATION"},{"code":"ASDM","name":"Amsterdam Muiderpoort","lat":52.3605537414551,"lng":4.93111133575439,"type":"STOPTREIN_STATION"},{"code":"RAI","name":"Amsterdam RAI","lat":52.3372230529785,"lng":4.89027786254883,"type":"STOPTREIN_STATION"},{"code":"ASSP","name":"Amsterdam Science Park","lat":52.35274,"lng":4.94855,"type":"STOPTREIN_STATION"},{"code":"ASS","name":"Amsterdam Sloterdijk","lat":52.3888893127441,"lng":4.83777761459351,"type":"KNOOPPUNT_INTERCITY_STATION"},{"code":"ASDZ","name":"Amsterdam Zuid","lat":52.338889,"lng":4.872356,"type":"INTERCITY_STATION"},{"code":"ANA","name":"Anna Paulowna","lat":52.8672218322754,"lng":4.81111097335815,"type":"STOPTREIN_STATION"},{"code":"APD","name":"Apeldoorn","lat":52.2091674804687,"lng":5.97027778625488,"type":"KNOOPPUNT_INTERCITY_STATION"},{"code":"APDM","name":"Apeldoorn De Maten","lat":52.2052764892578,"lng":6.00055551528931,"type":"STOPTREIN_STATION"},{"code":"APDO","name":"Apeldoorn Osseveld","lat":52.2152786254883,"lng":6.00444459915161,"type":"STOPTREIN_STATION"},{"code":"APG","name":"Appingedam","lat":53.3258135,"lng":6.8619577,"type":"STOPTREIN_STATION"},{"code":"AKL","name":"Arkel","lat":51.8719444274902,"lng":4.99277782440186,"type":"STOPTREIN_STATION"},{"code":"ARN","name":"Arnemuiden","lat":51.5016670227051,"lng":3.66916656494141,"type":"STOPTREIN_STATION"},{"code":"AH","name":"Arnhem Centraal","lat":51.9850006103516,"lng":5.89916658401489,"type":"KNOOPPUNT_INTERCITY_STATION"},{"code":"AHPR","name":"Arnhem Presikhaaf","lat":51.9880561828613,"lng":5.94388866424561,"type":"STOPTREIN_STATION"},{"code":"AHP","name":"Arnhem Velperpoort","lat":51.985279083252,"lng":5.91944456100464,"type":"STOPTREIN_STATION"},{"code":"AHZ","name":"Arnhem Zuid","lat":51.9550018310547,"lng":5.85194444656372,"type":"STOPTREIN_STATION"},{"code":"ASN","name":"Assen","lat":52.9916648864746,"lng":6.57083320617676,"type":"KNOOPPUNT_INTERCITY_STATION"},{"code":"BRN","name":"Baarn","lat":52.2083320617676,"lng":5.28083324432373,"type":"KNOOPPUNT_STOPTREIN_STATION"},{"code":"NSCH","name":"Bad Nieuweschans","lat":53.1844,"lng":7.19937,"type":"KNOOPPUNT_STOPTREIN_STATION"},{"code":"BF","name":"Baflo","lat":53.3608969,"lng":6.5185581,"type":"STOPTREIN_STATION"},{"code":"BRD","name":"Barendrecht","lat":51.8547210693359,"lng":4.5533332824707,"type":"STOPTREIN_STATION"},{"code":"BNC","name":"Barneveld Centrum","lat":52.1399993896484,"lng":5.59027767181396,"type":"STOPTREIN_STATION"},{"code":"BNN","name":"Barneveld Noord","lat":52.1613883972168,"lng":5.59805536270142,"type":"STOPTREIN_STATION"},{"code":"BNZ","name":"Barneveld Zuid","lat":52.128853,"lng":5.60246,"type":"STOPTREIN_STATION"},{"code":"BDM","name":"Bedum","lat":53.3068857,"lng":6.593054,"type":"STOPTREIN_STATION"},{"code":"BK","name":"Beek-Elsloo","lat":50.9474983215332,"lng":5.78666687011719,"type":"STOPTREIN_STATION"},{"code":"BSD","name":"Beesd","lat":51.8994445800781,"lng":5.19444465637207,"type":"STOPTREIN_STATION"},{"code":"BL","name":"Beilen","lat":52.8547210693359,"lng":6.52111101150513,"type":"STOPTREIN_STATION"},{"code":"BGN","name":"Bergen op Zoom","lat":51.4938888549805,"lng":4.29611110687256,"type":"STOPTREIN_STATION"},{"code":"BET","name":"Best","lat":51.5099983215332,"lng":5.38916683197022,"type":"STOPTREIN_STATION"},{"code":"BV","name":"Beverwijk","lat":52.4783325195313,"lng":4.65666675567627,"type":"STOPTREIN_STATION"},{"code":"BHV","name":"Bilthoven","lat":52.1300010681152,"lng":5.20388889312744,"type":"STOPTREIN_STATION"},{"code":"BR","name":"Blerick","lat":51.372501373291,"lng":6.15500020980835,"type":"STOPTREIN_STATION"},{"code":"BLL","name":"Bloemendaal","lat":52.404167175293,"lng":4.62750005722046,"type":"STOPTREIN_STATION"},{"code":"BDG","name":"Bodegraven","lat":52.0813903808594,"lng":4.7461109161377,"type":"STOPTREIN_STATION"},{"code":"BN","name":"Borne","lat":52.2988891601562,"lng":6.74805545806885,"type":"STOPTREIN_STATION"},{"code":"BSK","name":"Boskoop","lat":52.0777778625488,"lng":4.64694452285767,"type":"STOPTREIN_STATION"},{"code":"BSKS","name":"Boskoop Snijdelwijk","lat":52.067658,"lng":4.646186,"type":"STOPTREIN_STATION"},{"code":"BHDV","name":"Boven-Hardinxveld","lat":51.832222,"lng":4.878056,"type":"STOPTREIN_STATION"},{"code":"BKF","name":"Bovenkarspel Flora","lat":52.6961097717285,"lng":5.25277757644653,"type":"STOPTREIN_STATION"},{"code":"BKG","name":"Bovenkarspel-Grootebroek","lat":52.6949996948242,"lng":5.23777770996094,"type":"STOPTREIN_STATION"},{"code":"BMR","name":"Boxmeer","lat":51.6445217676531,"lng":5.93903303146362,"type":"KNOOPPUNT_STOPTREIN_STATION"},{"code":"BTL","name":"Boxtel","lat":51.58433,"lng":5.31912,"type":"KNOOPPUNT_STOPTREIN_STATION"},{"code":"BD","name":"Breda","lat":51.5955543518066,"lng":4.78000020980835,"type":"KNOOPPUNT_INTERCITY_STATION"},{"code":"BDPB","name":"Breda-Prinsenbeek","lat":51.606388092041,"lng":4.72083330154419,"type":"STOPTREIN_STATION"},{"code":"BKL","name":"Breukelen","lat":52.17149,"lng":4.9906,"type":"KNOOPPUNT_STOPTREIN_STATION"},{"code":"BMN","name":"Brummen","lat":52.0911102294922,"lng":6.14694452285767,"type":"STOPTREIN_STATION"},{"code":"BP","name":"Buitenpost","lat":53.2564547,"lng":6.1446496,"type":"KNOOPPUNT_SNELTREIN_STATION"},{"code":"BDE","name":"Bunde","lat":50.8969459533691,"lng":5.73666667938232,"type":"STOPTREIN_STATION"},{"code":"BNK","name":"Bunnik","lat":52.0630569458008,"lng":5.19444465637207,"type":"STOPTREIN_STATION"},{"code":"BSMZ","name":"Bussum Zuid","lat":52.2658348083496,"lng":5.16305541992188,"type":"STOPTREIN_STATION"},{"code":"CPS","name":"Capelle Schollevaar","lat":51.9541664123535,"lng":4.58416652679443,"type":"STOPTREIN_STATION"},{"code":"CAS","name":"Castricum","lat":52.5458335876465,"lng":4.65861129760742,"type":"INTERCITY_STATION"},{"code":"CVM","name":"Chevremont","lat":50.8761100769043,"lng":6.05972242355347,"type":"STOPTREIN_STATION"},{"code":"CO","name":"Coevorden","lat":52.6636123657227,"lng":6.73555564880371,"type":"KNOOPPUNT_SNELTREIN_STATION"},{"code":"CK","name":"Cuijk","lat":51.7266825879048,"lng":5.87429523468017,"type":"STOPTREIN_STATION"},{"code":"CL","name":"Culemborg","lat":51.9466667175293,"lng":5.22694444656372,"type":"STOPTREIN_STATION"},{"code":"DA","name":"Daarlerveen","lat":52.4407702,"lng":6.5759947,"type":"STOPTREIN_STATION"},{"code":"DLN","name":"Dalen","lat":52.6941680908203,"lng":6.75805568695068,"type":"STOPTREIN_STATION"},{"code":"DL","name":"Dalfsen","lat":52.4983329772949,"lng":6.25861120223999,"type":"SNELTREIN_STATION"},{"code":"DVNK","name":"De Vink","lat":52.1472206115723,"lng":4.4563889503479,"type":"STOPTREIN_STATION"},{"code":"DWE","name":"De Westereen","lat":53.24817,"lng":6.03463,"type":"STOPTREIN_STATION"},{"code":"DEI","name":"Deinum","lat":53.1888115,"lng":5.7281572,"type":"STOPTREIN_STATION"},{"code":"DDN","name":"Delden","lat":52.2599983215332,"lng":6.7161111831665,"type":"STOPTREIN_STATION"},{"code":"DT","name":"Delft","lat":52.0066680908203,"lng":4.35638904571533,"type":"KNOOPPUNT_INTERCITY_STATION"},{"code":"DTCP","name":"Delft Campus","lat":51.9908332824707,"lng":4.36472225189209,"type":"STOPTREIN_STATION"},{"code":"DZ","name":"Delfzijl","lat":53.3336625,"lng":6.9240797,"type":"STOPTREIN_STATION"},{"code":"DZW","name":"Delfzijl West","lat":53.3320834,"lng":6.9069092,"type":"STOPTREIN_STATION"},{"code":"DLD","name":"Den Dolder","lat":52.1402778625488,"lng":5.24277782440186,"type":"KNOOPPUNT_STOPTREIN_STATION"},{"code":"GVC","name":"Den Haag Centraal","lat":52.0802764892578,"lng":4.32499980926514,"type":"MEGA_STATION"},{"code":"GV","name":"Den Haag HS","lat":52.0697212219238,"lng":4.32250022888184,"type":"KNOOPPUNT_INTERCITY_STATION"},{"code":"LAA","name":"Den Haag Laan v NOI","lat":52.0786094665527,"lng":4.34277772903442,"type":"KNOOPPUNT_STOPTREIN_STATION"},{"code":"GVM","name":"Den Haag Mariahoeve","lat":52.0905570983887,"lng":4.36944437026978,"type":"STOPTREIN_STATION"},{"code":"GVMW","name":"Den Haag Moerwijk","lat":52.0538902282715,"lng":4.3086109161377,"type":"STOPTREIN_STATION"},{"code":"YPB","name":"Den Haag Ypenburg","lat":52.0552787780762,"lng":4.39222240447998,"type":"STOPTREIN_STATION"},{"code":"HDR","name":"Den Helder","lat":52.9552764892578,"lng":4.76111125946045,"type":"INTERCITY_STATION"},{"code":"HDRZ","name":"Den Helder Zuid","lat":52.9324989318848,"lng":4.76416683197022,"type":"STOPTREIN_STATION"},{"code":"DN","name":"Deurne","lat":51.4558334350586,"lng":5.78888893127441,"type":"STOPTREIN_STATION"},{"code":"DV","name":"Deventer","lat":52.2574996948242,"lng":6.16055536270142,"type":"KNOOPPUNT_INTERCITY_STATION"},{"code":"DVC","name":"Deventer Colmschate","lat":52.2502784729004,"lng":6.21444463729858,"type":"STOPTREIN_STATION"},{"code":"DID","name":"Didam","lat":51.933502,"lng":6.1324106,"type":"STOPTREIN_STATION"},{"code":"DMN","name":"Diemen","lat":52.34515,"lng":4.967566,"type":"STOPTREIN_STATION"},{"code":"DMNZ","name":"Diemen Zuid","lat":52.3302764892578,"lng":4.95583343505859,"type":"STOPTREIN_STATION"},{"code":"DR","name":"Dieren","lat":52.0449981689453,"lng":6.10305547714233,"type":"INTERCITY_STATION"},{"code":"DTC","name":"Doetinchem","lat":51.9585962,"lng":6.2962148,"type":"KNOOPPUNT_STOPTREIN_STATION"},{"code":"DTCH","name":"Doetinchem De Huet","lat":51.9591413,"lng":6.2598521,"type":"STOPTREIN_STATION"},{"code":"DDR","name":"Dordrecht","lat":51.8072204589844,"lng":4.66833353042603,"type":"KNOOPPUNT_INTERCITY_STATION"},{"code":"DDRS","name":"Dordrecht Stadspolders","lat":51.801944732666,"lng":4.71666669845581,"type":"STOPTREIN_STATION"},{"code":"DDZD","name":"Dordrecht Zuid","lat":51.7900009155273,"lng":4.67138910293579,"type":"STOPTREIN_STATION"},{"code":"DB","name":"Driebergen-Zeist","lat":52.0652770996094,"lng":5.25861120223999,"type":"KNOOPPUNT_STOPTREIN_STATION"},{"code":"DRH","name":"Driehuis","lat":52.4425010681152,"lng":4.63805532455444,"type":"STOPTREIN_STATION"},{"code":"DRP","name":"Dronryp","lat":53.1778086,"lng":5.6347411,"type":"STOPTREIN_STATION"},{"code":"DRON","name":"Dronten","lat":52.5344,"lng":5.72089,"type":"STOPTREIN_STATION"},{"code":"DVN","name":"Duiven","lat":51.9433326721191,"lng":6.01472234725952,"type":"STOPTREIN_STATION"},{"code":"DVD","name":"Duivendrecht","lat":52.3233337402344,"lng":4.93638896942139,"type":"KNOOPPUNT_STOPTREIN_STATION"},{"code":"EC","name":"Echt","lat":51.1005554199219,"lng":5.87888908386231,"type":"STOPTREIN_STATION"},{"code":"EDC","name":"Ede Centrum","lat":52.0436096191406,"lng":5.66833353042603,"type":"STOPTREIN_STATION"},{"code":"ED","name":"Ede-Wageningen","lat":52.0277786254883,"lng":5.67305564880371,"type":"KNOOPPUNT_INTERCITY_STATION"},{"code":"EEM","name":"Eemshaven","lat":53.458419,"lng":6.832,"type":"STOPTREIN_STATION"},{"code":"EDN","name":"Eijsden","lat":50.7719459533691,"lng":5.71000003814697,"type":"STOPTREIN_STATION"},{"code":"EHV","name":"Eindhoven Centraal","lat":51.4433326721191,"lng":5.48138904571533,"type":"MEGA_STATION"},{"code":"EHS","name":"Eindhoven Strijp-S","lat":51.4511108398438,"lng":5.45583343505859,"type":"STOPTREIN_STATION"},{"code":"EST","name":"Elst","lat":51.9169425964355,"lng":5.85500001907349,"type":"KNOOPPUNT_STOPTREIN_STATION"},{"code":"EMN","name":"Emmen","lat":52.7900009155273,"lng":6.89944458007812,"type":"SNELTREIN_STATION"},{"code":"EMNZ","name":"Emmen Zuid","lat":52.7488663746914,"lng":6.87478065490722,"type":"SNELTREIN_STATION"},{"code":"EKZ","name":"Enkhuizen","lat":52.6991653442383,"lng":5.28638887405396,"type":"STOPTREIN_STATION"},{"code":"ES","name":"Enschede","lat":52.2224998474121,"lng":6.8899998664856,"type":"KNOOPPUNT_INTERCITY_STATION"},{"code":"ESE","name":"Enschede De Eschmarke","lat":52.2213897705078,"lng":6.95111131668091,"type":"STOPTREIN_STATION"},{"code":"ESK","name":"Enschede Kennispark","lat":52.2374992370605,"lng":6.83888912200928,"type":"STOPTREIN_STATION"},{"code":"EML","name":"Ermelo","lat":52.3016662597656,"lng":5.61472225189209,"type":"STOPTREIN_STATION"},{"code":"ETN","name":"Etten-Leur","lat":51.5750007629395,"lng":4.63583326339722,"type":"INTERCITY_STATION"},{"code":"EGH","name":"Eygelshoven","lat":50.8905563354492,"lng":6.04500007629395,"type":"STOPTREIN_STATION"},{"code":"EGHM","name":"Eygelshoven Markt","lat":50.8960498196442,"lng":6.0602474212646396,"type":"STOPTREIN_STATION"},{"code":"FWD","name":"Feanwâlden","lat":53.2351834,"lng":5.9886615,"type":"STOPTREIN_STATION"},{"code":"FN","name":"Franeker","lat":53.1824488,"lng":5.5483094,"type":"STOPTREIN_STATION"},{"code":"GDR","name":"Gaanderen","lat":51.93074,"lng":6.3486,"type":"STOPTREIN_STATION"},{"code":"GDM","name":"Geldermalsen","lat":51.88301,"lng":5.27127,"type":"KNOOPPUNT_STOPTREIN_STATION"},{"code":"GP","name":"Geldrop","lat":51.4197235107422,"lng":5.55055570602417,"type":"KNOOPPUNT_STOPTREIN_STATION"},{"code":"GLN","name":"Geleen Oost","lat":50.9669456481934,"lng":5.84305572509766,"type":"STOPTREIN_STATION"},{"code":"LUT","name":"Geleen-Lutterade","lat":50.9755554199219,"lng":5.82472229003906,"type":"STOPTREIN_STATION"},{"code":"GZ","name":"Gilze-Rijen","lat":51.583610534668,"lng":4.92611122131348,"type":"STOPTREIN_STATION"},{"code":"GBR","name":"Glanerbrug","lat":52.2186126708984,"lng":6.97444438934326,"type":"STOPTREIN_STATION"},{"code":"GS","name":"Goes","lat":51.4980545043945,"lng":3.89055562019348,"type":"STOPTREIN_STATION"},{"code":"GO","name":"Goor","lat":52.2302780151367,"lng":6.58444452285767,"type":"STOPTREIN_STATION"},{"code":"GR","name":"Gorinchem","lat":51.8338890075684,"lng":4.96833324432373,"type":"KNOOPPUNT_STOPTREIN_STATION"},{"code":"GD","name":"Gouda","lat":52.0175018310547,"lng":4.70444440841675,"type":"KNOOPPUNT_INTERCITY_STATION"},{"code":"GDG","name":"Gouda Goverwelle","lat":52.0149993896484,"lng":4.7408332824707,"type":"STOPTREIN_STATION"},{"code":"GBG","name":"Gramsbergen","lat":52.6091651916504,"lng":6.67583322525024,"type":"STOPTREIN_STATION"},{"code":"GK","name":"Grijpskerk","lat":53.2557403255735,"lng":6.30977869033813,"type":"STOPTREIN_STATION"},{"code":"GN","name":"Groningen","lat":53.2105560302734,"lng":6.56472206115723,"type":"KNOOPPUNT_INTERCITY_STATION"},{"code":"GERP","name":"Groningen Europapark","lat":53.20480027,"lng":6.5854178,"type":"STOPTREIN_STATION"},{"code":"GNN","name":"Groningen Noord","lat":53.2301469,"lng":6.5563172,"type":"STOPTREIN_STATION"},{"code":"GW","name":"Grou-Jirnsum","lat":53.0888900756836,"lng":5.82250022888184,"type":"STOPTREIN_STATION"},{"code":"HLM","name":"Haarlem","lat":52.3877792358398,"lng":4.63833332061768,"type":"KNOOPPUNT_INTERCITY_STATION"},{"code":"HLMS","name":"Haarlem Spaarnwoude","lat":52.3827781677246,"lng":4.67305564880371,"type":"STOPTREIN_STATION"},{"code":"HWZB","name":"Halfweg-Zwanenburg","lat":52.385935,"lng":4.747165,"type":"STOPTREIN_STATION"},{"code":"HDB","name":"Hardenberg","lat":52.5727767944336,"lng":6.62861108779907,"type":"SNELTREIN_STATION"},{"code":"HD","name":"Harderwijk","lat":52.3375015258789,"lng":5.61972236633301,"type":"KNOOPPUNT_STOPTREIN_STATION"},{"code":"HBZM","name":"Hardinxveld Blauwe Zoom","lat":51.82944,"lng":4.815663,"type":"STOPTREIN_STATION"},{"code":"GND","name":"Hardinxveld-Giessendam","lat":51.8305549621582,"lng":4.83583354949951,"type":"STOPTREIN_STATION"},{"code":"HRN","name":"Haren","lat":53.1761093139648,"lng":6.61722230911255,"type":"STOPTREIN_STATION"},{"code":"HLG","name":"Harlingen","lat":53.1704205,"lng":5.4251932,"type":"STOPTREIN_STATION"},{"code":"HLGH","name":"Harlingen Haven","lat":53.174917,"lng":5.4112885,"type":"STOPTREIN_STATION"},{"code":"HK","name":"Heemskerk","lat":52.4952774047852,"lng":4.68694448471069,"type":"STOPTREIN_STATION"},{"code":"HAD","name":"Heemstede-Aerdenhout","lat":52.3591651916504,"lng":4.60666656494141,"type":"INTERCITY_STATION"},{"code":"HR","name":"Heerenveen","lat":52.9613876342773,"lng":5.91416645050049,"type":"INTERCITY_STATION"},{"code":"HRY","name":"Heerenveen IJsstadion","lat":52.9352760314941,"lng":5.94388866424561,"type":"FACULTATIEF_STATION"},{"code":"HWD","name":"Heerhugowaard","lat":52.6697235107422,"lng":4.82277774810791,"type":"KNOOPPUNT_STOPTREIN_STATION"},{"code":"HRL","name":"Heerlen","lat":50.8908348083496,"lng":5.97499990463257,"type":"KNOOPPUNT_INTERCITY_STATION"},{"code":"HRLW","name":"Heerlen Woonboulevard","lat":50.896667,"lng":5.952222,"type":"STOPTREIN_STATION"},{"code":"HZE","name":"Heeze","lat":51.3849983215332,"lng":5.56944465637207,"type":"STOPTREIN_STATION"},{"code":"HLO","name":"Heiloo","lat":52.5994453430176,"lng":4.70055532455444,"type":"STOPTREIN_STATION"},{"code":"HNO","name":"Heino","lat":52.4272232055664,"lng":6.22111129760742,"type":"STOPTREIN_STATION"},{"code":"HM","name":"Helmond","lat":51.4755554199219,"lng":5.66194438934326,"type":"KNOOPPUNT_INTERCITY_STATION"},{"code":"HMH","name":"Helmond 't Hout","lat":51.46794,"lng":5.63085,"type":"STOPTREIN_STATION"},{"code":"HMBV","name":"Helmond Brandevoort","lat":51.4622230529785,"lng":5.60722208023071,"type":"STOPTREIN_STATION"},{"code":"HMBH","name":"Helmond Brouwhuis","lat":51.47068,"lng":5.70177,"type":"STOPTREIN_STATION"},{"code":"HMN","name":"Hemmen-Dodewaard","lat":51.9222129,"lng":5.6737254,"type":"STOPTREIN_STATION"},{"code":"HGL","name":"Hengelo","lat":52.2616653442383,"lng":6.79388904571533,"type":"KNOOPPUNT_INTERCITY_STATION"},{"code":"HGLG","name":"Hengelo Gezondheidspark","lat":52.261667,"lng":6.767778,"type":"STOPTREIN_STATION"},{"code":"HGLO","name":"Hengelo Oost","lat":52.2688903808594,"lng":6.81944465637207,"type":"STOPTREIN_STATION"},{"code":"HIL","name":"Hillegom","lat":52.3025016784668,"lng":4.56555557250977,"type":"STOPTREIN_STATION"},{"code":"HVS","name":"Hilversum","lat":52.2258338928223,"lng":5.18194437026978,"type":"KNOOPPUNT_INTERCITY_STATION"},{"code":"HVSM","name":"Hilversum Media Park","lat":52.2380561828613,"lng":5.17388868331909,"type":"STOPTREIN_STATION"},{"code":"HVSP","name":"Hilversum Sportpark","lat":52.2161102294922,"lng":5.18722200393677,"type":"STOPTREIN_STATION"},{"code":"HNP","name":"Hindeloopen","lat":52.9464903,"lng":5.423063,"type":"STOPTREIN_STATION"},{"code":"HB","name":"Hoensbroek","lat":50.9055557250977,"lng":5.93055534362793,"type":"STOPTREIN_STATION"},{"code":"HVL","name":"Hoevelaken","lat":52.16652,"lng":5.45718,"type":"STOPTREIN_STATION"},{"code":"HOR","name":"Hollandsche Rading","lat":52.1777763366699,"lng":5.17916679382324,"type":"STOPTREIN_STATION"},{"code":"HON","name":"Holten","lat":52.2838897705078,"lng":6.42027759552002,"type":"STOPTREIN_STATION"},{"code":"HFD","name":"Hoofddorp","lat":52.2933349609375,"lng":4.70055532455444,"type":"STOPTREIN_STATION"},{"code":"HGV","name":"Hoogeveen","lat":52.7338905334473,"lng":6.47361087799072,"type":"STOPTREIN_STATION"},{"code":"HGZ","name":"Hoogezand-Sappemeer","lat":53.1598181316756,"lng":6.77075386047363,"type":"KNOOPPUNT_STOPTREIN_STATION"},{"code":"HKS","name":"Hoogkarspel","lat":52.6905555725098,"lng":5.18388891220093,"type":"STOPTREIN_STATION"},{"code":"HN","name":"Hoorn","lat":52.6447219848633,"lng":5.05555534362793,"type":"KNOOPPUNT_INTERCITY_STATION"},{"code":"HNK","name":"Hoorn Kersenboogerd","lat":52.6536102294922,"lng":5.08555555343628,"type":"STOPTREIN_STATION"},{"code":"HRT","name":"Horst-Sevenum","lat":51.4263877868652,"lng":6.04222202301025,"type":"STOPTREIN_STATION"},{"code":"HTN","name":"Houten","lat":52.03402,"lng":5.16821,"type":"KNOOPPUNT_STOPTREIN_STATION"},{"code":"HTNC","name":"Houten Castellum","lat":52.01701,"lng":5.17949,"type":"STOPTREIN_STATION"},{"code":"SGL","name":"Houthem-St. Gerlach","lat":50.8733329772949,"lng":5.79722213745117,"type":"STOPTREIN_STATION"},{"code":"HDG","name":"Hurdegaryp","lat":53.2187783,"lng":5.934543,"type":"STOPTREIN_STATION"},{"code":"IJT","name":"IJlst","lat":53.0146614,"lng":5.6160801,"type":"STOPTREIN_STATION"},{"code":"KPN","name":"Kampen","lat":52.5597229003906,"lng":5.92166662216186,"type":"STOPTREIN_STATION"},{"code":"KPNZ","name":"Kampen Zuid","lat":52.5331,"lng":5.91309,"type":"STOPTREIN_STATION"},{"code":"BZL","name":"Kapelle-Biezelinge","lat":51.4808349609375,"lng":3.95611119270325,"type":"STOPTREIN_STATION"},{"code":"KRD","name":"Kerkrade Centrum","lat":50.8616676330566,"lng":6.05749988555908,"type":"KNOOPPUNT_STOPTREIN_STATION"},{"code":"KTR","name":"Kesteren","lat":51.9313869,"lng":5.5833465,"type":"STOPTREIN_STATION"},{"code":"KBK","name":"Klarenbeek","lat":52.1780548095703,"lng":6.08361101150513,"type":"STOPTREIN_STATION"},{"code":"KMR","name":"Klimmen-Ransdaal","lat":50.8663902282715,"lng":5.8905553817749,"type":"STOPTREIN_STATION"},{"code":"KZ","name":"Koog aan de Zaan","lat":52.458610534668,"lng":4.80555534362793,"type":"STOPTREIN_STATION"},{"code":"KMW","name":"Koudum-Molkwerum","lat":52.9028197,"lng":5.4106913,"type":"STOPTREIN_STATION"},{"code":"KBD","name":"Krabbendijke","lat":51.4333343505859,"lng":4.11694431304932,"type":"STOPTREIN_STATION"},{"code":"KMA","name":"Krommenie-Assendelft","lat":52.49511,"lng":4.75417,"type":"STOPTREIN_STATION"},{"code":"KW","name":"Kropswolde","lat":53.1617362,"lng":6.7220882,"type":"STOPTREIN_STATION"},{"code":"KRG","name":"Kruiningen-Yerseke","lat":51.4650001525879,"lng":4.03722238540649,"type":"STOPTREIN_STATION"},{"code":"ZLW","name":"Lage Zwaluwe","lat":51.6911125183105,"lng":4.66305541992188,"type":"KNOOPPUNT_STOPTREIN_STATION"},{"code":"LG","name":"Landgraaf","lat":50.8963890075684,"lng":6.01916646957398,"type":"KNOOPPUNT_STOPTREIN_STATION"},{"code":"LLZM","name":"Lansingerland-Zoetermeer","lat":52.042222,"lng":4.517222,"type":"STOPTREIN_STATION"},{"code":"LDM","name":"Leerdam","lat":51.8947219848633,"lng":5.09138870239258,"type":"STOPTREIN_STATION"},{"code":"LW","name":"Leeuwarden","lat":53.1958351135254,"lng":5.79222202301025,"type":"KNOOPPUNT_INTERCITY_STATION"},{"code":"LWC","name":"Leeuwarden Camminghaburen","lat":53.2021808,"lng":5.8422968,"type":"STOPTREIN_STATION"},{"code":"LEDN","name":"Leiden Centraal","lat":52.1661109924316,"lng":4.48166656494141,"type":"KNOOPPUNT_INTERCITY_STATION"},{"code":"LDL","name":"Leiden Lammenschans","lat":52.1469459533691,"lng":4.49249982833862,"type":"STOPTREIN_STATION"},{"code":"LLS","name":"Lelystad Centrum","lat":52.5077781677246,"lng":5.47277784347534,"type":"KNOOPPUNT_INTERCITY_STATION"},{"code":"LTV","name":"Lichtenvoorde-Groenlo","lat":52.01188,"lng":6.59641,"type":"STOPTREIN_STATION"},{"code":"LC","name":"Lochem","lat":52.1666679382324,"lng":6.42638874053955,"type":"STOPTREIN_STATION"},{"code":"LP","name":"Loppersum","lat":53.3347145,"lng":6.7472625,"type":"STOPTREIN_STATION"},{"code":"LTN","name":"Lunteren","lat":52.085277557373,"lng":5.62444448471069,"type":"STOPTREIN_STATION"},{"code":"MZ","name":"Maarheeze","lat":51.304986,"lng":5.629796,"type":"STOPTREIN_STATION"},{"code":"MRN","name":"Maarn","lat":52.0641670227051,"lng":5.36999988555908,"type":"KNOOPPUNT_STOPTREIN_STATION"},{"code":"MAS","name":"Maarssen","lat":52.1352767944336,"lng":5.03361129760742,"type":"STOPTREIN_STATION"},{"code":"MT","name":"Maastricht","lat":50.8502769470215,"lng":5.70555543899536,"type":"KNOOPPUNT_INTERCITY_STATION"},{"code":"MTN","name":"Maastricht Noord","lat":50.87087,"lng":5.71774,"type":"STOPTREIN_STATION"},{"code":"MTR","name":"Maastricht Randwyck","lat":50.8386116027832,"lng":5.71722221374512,"type":"KNOOPPUNT_STOPTREIN_STATION"},{"code":"MG","name":"Mantgum","lat":53.1296368,"lng":5.7131996,"type":"STOPTREIN_STATION"},{"code":"MRB","name":"Mariënberg","lat":52.5094451904297,"lng":6.57527780532837,"type":"KNOOPPUNT_SNELTREIN_STATION"},{"code":"MTH","name":"Martenshoek","lat":53.1607232,"lng":6.7402989,"type":"STOPTREIN_STATION"},{"code":"MES","name":"Meerssen","lat":50.882879392551,"lng":5.75099945068359,"type":"SNELTREIN_STATION"},{"code":"MP","name":"Meppel","lat":52.6908340454102,"lng":6.19750022888184,"type":"KNOOPPUNT_STOPTREIN_STATION"},{"code":"MDB","name":"Middelburg","lat":51.4947204589844,"lng":3.61722230911255,"type":"STOPTREIN_STATION"},{"code":"MMLH","name":"Mook-Molenhoek","lat":51.766262,"lng":5.879133,"type":"STOPTREIN_STATION"},{"code":"NDB","name":"Naarden-Bussum","lat":52.2802772521973,"lng":5.15694427490234,"type":"KNOOPPUNT_STOPTREIN_STATION"},{"code":"NA","name":"Nieuw Amsterdam","lat":52.7186126708984,"lng":6.84861087799072,"type":"SNELTREIN_STATION"},{"code":"NVP","name":"Nieuw Vennep","lat":52.2588882446289,"lng":4.64555549621582,"type":"STOPTREIN_STATION"},{"code":"NWK","name":"Nieuwerkerk a/d IJssel","lat":51.9652786254883,"lng":4.61694431304932,"type":"STOPTREIN_STATION"},{"code":"NKK","name":"Nijkerk","lat":52.2222213745117,"lng":5.49388885498047,"type":"STOPTREIN_STATION"},{"code":"NM","name":"Nijmegen","lat":51.8436126708984,"lng":5.85222244262695,"type":"KNOOPPUNT_INTERCITY_STATION"},{"code":"NMD","name":"Nijmegen Dukenburg","lat":51.8241653442383,"lng":5.79555559158325,"type":"STOPTREIN_STATION"},{"code":"NMGO","name":"Nijmegen Goffert","lat":51.8273,"lng":5.822722,"type":"STOPTREIN_STATION"},{"code":"NMH","name":"Nijmegen Heyendaal","lat":51.8269462585449,"lng":5.86749982833862,"type":"STOPTREIN_STATION"},{"code":"NML","name":"Nijmegen Lent","lat":51.863154,"lng":5.859625,"type":"STOPTREIN_STATION"},{"code":"NVD","name":"Nijverdal","lat":52.366111,"lng":6.462,"type":"STOPTREIN_STATION"},{"code":"NS","name":"Nunspeet","lat":52.3708343505859,"lng":5.78527784347534,"type":"STOPTREIN_STATION"},{"code":"NH","name":"Nuth","lat":50.9194450378418,"lng":5.89277791976929,"type":"STOPTREIN_STATION"},{"code":"OBD","name":"Obdam","lat":52.6780548095703,"lng":4.90722227096558,"type":"STOPTREIN_STATION"},{"code":"OT","name":"Oisterwijk","lat":51.5822219848633,"lng":5.19416666030884,"type":"STOPTREIN_STATION"},{"code":"ODZ","name":"Oldenzaal","lat":52.3063888549805,"lng":6.93472242355347,"type":"STOPTREIN_STATION"},{"code":"OST","name":"Olst","lat":52.3347206115723,"lng":6.11305570602417,"type":"INTERCITY_STATION"},{"code":"OMN","name":"Ommen","lat":52.5094451904297,"lng":6.41583347320557,"type":"KNOOPPUNT_SNELTREIN_STATION"},{"code":"OTB","name":"Oosterbeek","lat":51.9949989318848,"lng":5.84000015258789,"type":"STOPTREIN_STATION"},{"code":"OP","name":"Opheusden","lat":51.9261615,"lng":5.6371145,"type":"STOPTREIN_STATION"},{"code":"O","name":"Oss","lat":51.7655563354492,"lng":5.53222227096558,"type":"KNOOPPUNT_INTERCITY_STATION"},{"code":"OW","name":"Oss West","lat":51.758056640625,"lng":5.50555562973022,"type":"STOPTREIN_STATION"},{"code":"ODB","name":"Oudenbosch","lat":51.587776184082,"lng":4.53333330154419,"type":"STOPTREIN_STATION"},{"code":"OVN","name":"Overveen","lat":52.3911094665527,"lng":4.6061110496521,"type":"STOPTREIN_STATION"},{"code":"PMR","name":"Purmerend","lat":52.5030555725098,"lng":4.95361089706421,"type":"KNOOPPUNT_STOPTREIN_STATION"},{"code":"PMO","name":"Purmerend Overwhere","lat":52.5113906860352,"lng":4.96833324432373,"type":"STOPTREIN_STATION"},{"code":"PMW","name":"Purmerend Weidevenne","lat":52.4965906325416,"lng":4.93562936782836,"type":"STOPTREIN_STATION"},{"code":"PT","name":"Putten","lat":52.2649993896484,"lng":5.57527780532837,"type":"STOPTREIN_STATION"},{"code":"RAT","name":"Raalte","lat":52.3916664123535,"lng":6.27750015258789,"type":"STOPTREIN_STATION"},{"code":"RVS","name":"Ravenstein","lat":51.7941665649414,"lng":5.63583326339722,"type":"STOPTREIN_STATION"},{"code":"RV","name":"Reuver","lat":51.2832191665301,"lng":6.07895851135253,"type":"STOPTREIN_STATION"},{"code":"RH","name":"Rheden","lat":52.0101,"lng":6.0314,"type":"STOPTREIN_STATION"},{"code":"RHN","name":"Rhenen","lat":51.958610534668,"lng":5.57833337783814,"type":"KNOOPPUNT_STOPTREIN_STATION"},{"code":"RSN","name":"Rijssen","lat":52.3122215270996,"lng":6.52027797698975,"type":"STOPTREIN_STATION"},{"code":"RSW","name":"Rijswijk","lat":52.039722442627,"lng":4.31916666030884,"type":"STOPTREIN_STATION"},{"code":"RB","name":"Rilland-Bath","lat":51.422779083252,"lng":4.16111087799072,"type":"STOPTREIN_STATION"},{"code":"RM","name":"Roermond","lat":51.1930541992188,"lng":5.9941668510437,"type":"KNOOPPUNT_INTERCITY_STATION"},{"code":"RD","name":"Roodeschool","lat":53.421262,"lng":6.7587,"type":"STOPTREIN_STATION"},{"code":"RSD","name":"Roosendaal","lat":51.5402793884277,"lng":4.45833349227905,"type":"KNOOPPUNT_INTERCITY_STATION"},{"code":"RS","name":"Rosmalen","lat":51.7147216796875,"lng":5.36805534362793,"type":"STOPTREIN_STATION"},{"code":"RTA","name":"Rotterdam Alexander","lat":51.9519462585449,"lng":4.55361127853394,"type":"INTERCITY_STATION"},{"code":"RTB","name":"Rotterdam Blaak","lat":51.9202766418457,"lng":4.48888874053955,"type":"STOPTREIN_STATION"},{"code":"RTD","name":"Rotterdam Centraal","lat":51.9249992370605,"lng":4.46888875961304,"type":"MEGA_STATION"},{"code":"RLB","name":"Rotterdam Lombardijen","lat":51.8800010681152,"lng":4.53138875961304,"type":"STOPTREIN_STATION"},{"code":"RTN","name":"Rotterdam Noord","lat":51.9422225952148,"lng":4.48166656494141,"type":"STOPTREIN_STATION"},{"code":"RTST","name":"Rotterdam Stadion","lat":51.8938903808594,"lng":4.51972198486328,"type":"FACULTATIEF_STATION"},{"code":"RTZ","name":"Rotterdam Zuid","lat":51.9044456481934,"lng":4.51027774810791,"type":"STOPTREIN_STATION"},{"code":"RL","name":"Ruurlo","lat":52.0810888,"lng":6.4492656,"type":"STOPTREIN_STATION"},{"code":"SPTN","name":"Santpoort Noord","lat":52.4338874816895,"lng":4.63250017166138,"type":"STOPTREIN_STATION"},{"code":"SPTZ","name":"Santpoort Zuid","lat":52.4197235107422,"lng":4.63138866424561,"type":"STOPTREIN_STATION"},{"code":"SSH","name":"Sassenheim","lat":52.215278,"lng":4.517222,"type":"STOPTREIN_STATION"},{"code":"SWD","name":"Sauwerd","lat":53.29113,"lng":6.5404,"type":"STOPTREIN_STATION"},{"code":"SGN","name":"Schagen","lat":52.7844429016113,"lng":4.80527782440186,"type":"STOPTREIN_STATION"},{"code":"SDA","name":"Scheemda","lat":53.1655362,"lng":6.9777775,"type":"STOPTREIN_STATION"},{"code":"SDM","name":"Schiedam Centrum","lat":51.9212438128032,"lng":4.4089937210083,"type":"STOPTREIN_STATION"},{"code":"SOG","name":"Schin op Geul","lat":50.856388092041,"lng":5.87222242355347,"type":"STOPTREIN_STATION"},{"code":"SN","name":"Schinnen","lat":50.9391670227051,"lng":5.87444448471069,"type":"STOPTREIN_STATION"},{"code":"SHL","name":"Schiphol Airport","lat":52.3094444274902,"lng":4.76194429397583,"type":"MEGA_STATION"},{"code":"STD","name":"Sittard","lat":51.0016670227051,"lng":5.85861110687256,"type":"KNOOPPUNT_INTERCITY_STATION"},{"code":"SDT","name":"Sliedrecht","lat":51.8297233581543,"lng":4.77833318710327,"type":"STOPTREIN_STATION"},{"code":"SDTB","name":"Sliedrecht Baanhoek","lat":51.829722,"lng":4.743333,"type":"STOPTREIN_STATION"},{"code":"SK","name":"Sneek","lat":53.0328688,"lng":5.6523969,"type":"KNOOPPUNT_STOPTREIN_STATION"},{"code":"SKND","name":"Sneek Noord","lat":53.0409319,"lng":5.6631808,"type":"STOPTREIN_STATION"},{"code":"ST","name":"Soest","lat":52.1733322143555,"lng":5.30999994277954,"type":"KNOOPPUNT_STOPTREIN_STATION"},{"code":"STZ","name":"Soest Zuid","lat":52.1652793884277,"lng":5.30305576324463,"type":"STOPTREIN_STATION"},{"code":"SD","name":"Soestdijk","lat":52.1836128234863,"lng":5.30000019073486,"type":"STOPTREIN_STATION"},{"code":"SBK","name":"Spaubeek","lat":50.94327,"lng":5.850529,"type":"STOPTREIN_STATION"},{"code":"STV","name":"Stavoren","lat":52.8865535,"lng":5.3600212,"type":"STOPTREIN_STATION"},{"code":"STM","name":"Stedum","lat":53.3262092,"lng":6.6875551,"type":"STOPTREIN_STATION"},{"code":"SWK","name":"Steenwijk","lat":52.7915109924316,"lng":6.11455576324463,"type":"INTERCITY_STATION"},{"code":"SRN","name":"Susteren","lat":51.0613899230957,"lng":5.86305570602417,"type":"STOPTREIN_STATION"},{"code":"SM","name":"Swalmen","lat":51.23582,"lng":6.03228,"type":"STOPTREIN_STATION"},{"code":"TG","name":"Tegelen","lat":51.33894,"lng":6.14253,"type":"STOPTREIN_STATION"},{"code":"TBG","name":"Terborg","lat":51.9224549,"lng":6.3642466,"type":"STOPTREIN_STATION"},{"code":"TL","name":"Tiel","lat":51.8894462585449,"lng":5.42222213745117,"type":"KNOOPPUNT_STOPTREIN_STATION"},{"code":"TPSW","name":"Tiel Passewaaij","lat":51.8738899230957,"lng":5.39222240447998,"type":"STOPTREIN_STATION"},{"code":"TB","name":"Tilburg","lat":51.5605545043945,"lng":5.08361101150513,"type":"KNOOPPUNT_INTERCITY_STATION"},{"code":"TBR","name":"Tilburg Reeshof","lat":51.5736122131348,"lng":4.99444437026978,"type":"STOPTREIN_STATION"},{"code":"TBU","name":"Tilburg Universiteit","lat":51.564985,"lng":5.051778,"type":"STOPTREIN_STATION"},{"code":"TWL","name":"Twello","lat":52.2377777099609,"lng":6.09861087799072,"type":"STOPTREIN_STATION"},{"code":"UTG","name":"Uitgeest","lat":52.5216674804687,"lng":4.70166683197022,"type":"KNOOPPUNT_STOPTREIN_STATION"},{"code":"UHZ","name":"Uithuizen","lat":53.4099568,"lng":6.6748869,"type":"STOPTREIN_STATION"},{"code":"UHM","name":"Uithuizermeeden","lat":53.4145845,"lng":6.7202975,"type":"STOPTREIN_STATION"},{"code":"UST","name":"Usquert","lat":53.4014742,"lng":6.6093776,"type":"STOPTREIN_STATION"},{"code":"UT","name":"Utrecht Centraal","lat":52.0888900756836,"lng":5.11027765274048,"type":"MEGA_STATION"},{"code":"UTLR","name":"Utrecht Leidsche Rijn","lat":52.09896,"lng":5.06523,"type":"STOPTREIN_STATION"},{"code":"UTLN","name":"Utrecht Lunetten","lat":52.0655555725098,"lng":5.14416646957397,"type":"STOPTREIN_STATION"},{"code":"UTM","name":"Utrecht Maliebaan","lat":52.087776184082,"lng":5.13138866424561,"type":"STOPTREIN_STATION"},{"code":"UTO","name":"Utrecht Overvecht","lat":52.1100006103516,"lng":5.12472200393677,"type":"KNOOPPUNT_STOPTREIN_STATION"},{"code":"UTT","name":"Utrecht Terwijde","lat":52.1000753,"lng":5.0439547,"type":"STOPTREIN_STATION"},{"code":"UTVR","name":"Utrecht Vaartsche Rijn","lat":52.078889,"lng":5.121667,"type":"KNOOPPUNT_STOPTREIN_STATION"},{"code":"UTZL","name":"Utrecht Zuilen","lat":52.103055,"lng":5.09,"type":"STOPTREIN_STATION"},{"code":"VK","name":"Valkenburg","lat":50.8697204589844,"lng":5.83222198486328,"type":"KNOOPPUNT_SNELTREIN_STATION"},{"code":"VSV","name":"Varsseveld","lat":51.937257,"lng":6.458839,"type":"STOPTREIN_STATION"},{"code":"VDM","name":"Veendam","lat":53.10324,"lng":6.88475,"type":"KNOOPPUNT_STOPTREIN_STATION"},{"code":"VNDC","name":"Veenendaal Centrum","lat":52.0200004577637,"lng":5.54861116409302,"type":"KNOOPPUNT_STOPTREIN_STATION"},{"code":"VNDW","name":"Veenendaal West","lat":52.0280570983887,"lng":5.53138875961304,"type":"STOPTREIN_STATION"},{"code":"KLP","name":"Veenendaal-De Klomp","lat":52.0458335876465,"lng":5.57388877868652,"type":"STOPTREIN_STATION"},{"code":"VP","name":"Velp","lat":51.9947204589844,"lng":5.98027801513672,"type":"STOPTREIN_STATION"},{"code":"VL","name":"Venlo","lat":51.3636093139648,"lng":6.17277765274048,"type":"KNOOPPUNT_INTERCITY_STATION"},{"code":"VRY","name":"Venray","lat":51.526568099007,"lng":6.01417779922485,"type":"KNOOPPUNT_STOPTREIN_STATION"},{"code":"VLB","name":"Vierlingsbeek","lat":51.59193,"lng":5.99714,"type":"STOPTREIN_STATION"},{"code":"VTN","name":"Vleuten","lat":52.103056,"lng":5.007404,"type":"STOPTREIN_STATION"},{"code":"VS","name":"Vlissingen","lat":51.4458351135254,"lng":3.59527778625488,"type":"KNOOPPUNT_INTERCITY_STATION"},{"code":"VSS","name":"Vlissingen Souburg","lat":51.4647216796875,"lng":3.59527778625488,"type":"STOPTREIN_STATION"},{"code":"VDL","name":"Voerendaal","lat":50.8872222900391,"lng":5.93027782440186,"type":"STOPTREIN_STATION"},{"code":"VB","name":"Voorburg","lat":52.0666656494141,"lng":4.3594446182251,"type":"STOPTREIN_STATION"},{"code":"VH","name":"Voorhout","lat":52.2244453430176,"lng":4.4844446182251,"type":"STOPTREIN_STATION"},{"code":"VST","name":"Voorschoten","lat":52.1252784729004,"lng":4.43249988555908,"type":"STOPTREIN_STATION"},{"code":"VEM","name":"Voorst-Empe","lat":52.1575012207031,"lng":6.14361095428467,"type":"STOPTREIN_STATION"},{"code":"VD","name":"Vorden","lat":52.1071949,"lng":6.3170457,"type":"STOPTREIN_STATION"},{"code":"VZ","name":"Vriezenveen","lat":52.40203,"lng":6.60041,"type":"STOPTREIN_STATION"},{"code":"VHP","name":"Vroomshoop","lat":52.4571921,"lng":6.5696679,"type":"STOPTREIN_STATION"},{"code":"VG","name":"Vught","lat":51.65038,"lng":5.29218,"type":"STOPTREIN_STATION"},{"code":"WAD","name":"Waddinxveen","lat":52.0441665649414,"lng":4.6497220993042,"type":"STOPTREIN_STATION"},{"code":"WADN","name":"Waddinxveen Noord","lat":52.0550003051758,"lng":4.64833354949951,"type":"STOPTREIN_STATION"},{"code":"WADT","name":"Waddinxveen Triangel","lat":52.02725,"lng":4.6491,"type":"STOPTREIN_STATION"},{"code":"WFM","name":"Warffum","lat":53.3908431,"lng":6.5671364,"type":"STOPTREIN_STATION"},{"code":"WT","name":"Weert","lat":51.2486114501953,"lng":5.70361089706421,"type":"INTERCITY_STATION"},{"code":"WP","name":"Weesp","lat":52.3127784729004,"lng":5.04305553436279,"type":"KNOOPPUNT_STOPTREIN_STATION"},{"code":"WL","name":"Wehl","lat":51.9578065,"lng":6.213844,"type":"STOPTREIN_STATION"},{"code":"WTV","name":"Westervoort","lat":51.96286,"lng":5.9695,"type":"STOPTREIN_STATION"},{"code":"WZ","name":"Wezep","lat":52.4541664123535,"lng":6.00250005722046,"type":"STOPTREIN_STATION"},{"code":"WDN","name":"Wierden","lat":52.3613891601562,"lng":6.59166669845581,"type":"KNOOPPUNT_STOPTREIN_STATION"},{"code":"WC","name":"Wijchen","lat":51.8116683959961,"lng":5.73083353042603,"type":"STOPTREIN_STATION"},{"code":"WH","name":"Wijhe","lat":52.3902778625488,"lng":6.1405553817749,"type":"INTERCITY_STATION"},{"code":"WS","name":"Winschoten","lat":53.1392377,"lng":7.035101,"type":"KNOOPPUNT_STOPTREIN_STATION"},{"code":"WSM","name":"Winsum","lat":53.3300994,"lng":6.5202905,"type":"STOPTREIN_STATION"},{"code":"WW","name":"Winterswijk","lat":51.9677307,"lng":6.7155181,"type":"KNOOPPUNT_STOPTREIN_STATION"},{"code":"WWW","name":"Winterswijk West","lat":51.97453,"lng":6.70417,"type":"STOPTREIN_STATION"},{"code":"WD","name":"Woerden","lat":52.0849990844727,"lng":4.89361095428467,"type":"KNOOPPUNT_STOPTREIN_STATION"},{"code":"WF","name":"Wolfheze","lat":52.0055541992188,"lng":5.7936110496521,"type":"STOPTREIN_STATION"},{"code":"WV","name":"Wolvega","lat":52.8808326721191,"lng":6.00361108779907,"type":"STOPTREIN_STATION"},{"code":"WK","name":"Workum","lat":52.9724864,"lng":5.4564285,"type":"STOPTREIN_STATION"},{"code":"WM","name":"Wormerveer","lat":52.4891662597656,"lng":4.79222202301025,"type":"STOPTREIN_STATION"},{"code":"ZD","name":"Zaandam","lat":52.4388885498047,"lng":4.81361103057861,"type":"KNOOPPUNT_INTERCITY_STATION"},{"code":"ZDK","name":"Zaandam Kogerveld","lat":52.4566650390625,"lng":4.82027769088745,"type":"STOPTREIN_STATION"},{"code":"ZZS","name":"Zaandijk Zaanse Schans","lat":52.469165802002,"lng":4.80499982833862,"type":"KNOOPPUNT_STOPTREIN_STATION"},{"code":"ZBM","name":"Zaltbommel","lat":51.8088874816895,"lng":5.26333332061768,"type":"STOPTREIN_STATION"},{"code":"ZVT","name":"Zandvoort aan Zee","lat":52.3752784729004,"lng":4.53277778625488,"type":"STOPTREIN_STATION"},{"code":"ZA","name":"Zetten-Andelst","lat":51.920056,"lng":5.7228408,"type":"STOPTREIN_STATION"},{"code":"ZV","name":"Zevenaar","lat":51.9230537414551,"lng":6.07194423675537,"type":"KNOOPPUNT_STOPTREIN_STATION"},{"code":"ZVB","name":"Zevenbergen","lat":51.64042,"lng":4.60904,"type":"STOPTREIN_STATION"},{"code":"ZTM","name":"Zoetermeer","lat":52.0475006103516,"lng":4.47722244262695,"type":"KNOOPPUNT_STOPTREIN_STATION"},{"code":"ZTMO","name":"Zoetermeer Oost","lat":52.0463905334473,"lng":4.49277782440186,"type":"STOPTREIN_STATION"},{"code":"ZB","name":"Zuidbroek","lat":53.1596122800056,"lng":6.8679141998291,"type":"KNOOPPUNT_STOPTREIN_STATION"},{"code":"ZH","name":"Zuidhorn","lat":53.2486292,"lng":6.4062361,"type":"STOPTREIN_STATION"},{"code":"ZP","name":"Zutphen","lat":52.1452789306641,"lng":6.19416666030884,"type":"KNOOPPUNT_INTERCITY_STATION"},{"code":"ZWD","name":"Zwijndrecht","lat":51.814998626709,"lng":4.64166688919067,"type":"STOPTREIN_STATION"},{"code":"ZL","name":"Zwolle","lat":52.5047225952148,"lng":6.09194421768188,"type":"KNOOPPUNT_INTERCITY_STATION"},{"code":"ZLSH","name":"Zwolle Stadshagen","lat":52.52764,"lng":6.05146,"type":"STOPTREIN_STATION"}]